[
  {
    "camera_id": "CAM-001",
    "location": "Silk Board Junction",
    "zone": "BTM Layout",
    "lat": 12.9172,
    "lng": 77.6228,
    "resolution": "1080p",
    "fps": 30,
    "historical_fp": 0.04
  },
  {
    "camera_id": "CAM-002",
    "location": "Trinity Circle, MG Road",
    "zone": "MG Road",
    "lat": 12.9728,
    "lng": 77.6190,
    "resolution": "1080p",
    "fps": 30,
    "historical_fp": 0.05
  },
  {
    "camera_id": "CAM-003",
    "location": "Hebbal Flyover",
    "zone": "Hebbal",
    "lat": 13.0358,
    "lng": 77.5970,
    "resolution": "1080p",
    "fps": 25,
    "historical_fp": 0.06
  },
  {
    "camera_id": "CAM-004",
    "location": "Marathahalli Bridge",
    "zone": "Marathahalli",
    "lat": 12.9560,
    "lng": 77.7010,
    "resolution": "720p",
    "fps": 25,
    "historical_fp": 0.08
  },
  {
    "camera_id": "CAM-005",
    "location": "KR Puram Hanging Bridge",
    "zone": "KR Puram",
    "lat": 13.0070,
    "lng": 77.6960,
    "resolution": "1080p",
    "fps": 30,
    "historical_fp": 0.05
  },
  {
    "camera_id": "CAM-006",
    "location": "Electronic City Toll Plaza",
    "zone": "Electronic City",
    "lat": 12.8450,
    "lng": 77.6600,
    "resolution": "1080p",
    "fps": 30,
    "historical_fp": 0.05
  }
]
